City_ID,City,Lat,Lng,Max Temp,Humidity,Cloudiness,Wind Speed,Country,Current Description,Date
0,Jamestown,42.097,-79.2353,51.39,91,90,5.01,US,overcast clouds,2021-11-01 04:26:53
1,Cherskiy,68.75,161.3,-2.74,99,100,5.53,RU,overcast clouds,2021-11-01 04:19:52
2,Saskylakh,71.9167,114.0833,3.78,97,98,5.61,RU,overcast clouds,2021-11-01 04:29:38
3,Rikitea,-23.1203,-134.9692,72.99,76,100,16.78,PF,overcast clouds,2021-11-01 04:27:35
4,Provideniya,64.3833,-173.3,17.71,62,40,11.18,RU,scattered clouds,2021-11-01 04:18:49
5,Chokurdakh,70.6333,147.9167,-6.75,98,94,7.07,RU,overcast clouds,2021-11-01 04:20:50
6,Severo-Kurilsk,50.6789,156.125,36.63,55,72,24.32,RU,light rain,2021-11-01 04:20:39
7,Butaritari,3.0707,172.7902,82.62,73,6,12.24,KI,light rain,2021-11-01 04:15:20
8,Fortuna,40.5982,-124.1573,61.48,70,90,4.0,US,overcast clouds,2021-11-01 04:20:10
9,Tabuk,17.4189,121.4443,82.85,67,57,4.72,PH,broken clouds,2021-11-01 04:29:40
10,Kommunar,59.6206,30.39,47.73,94,93,5.39,RU,overcast clouds,2021-11-01 04:29:41
11,Longyearbyen,78.2186,15.6401,33.64,75,75,19.57,SJ,broken clouds,2021-11-01 04:29:08
12,Huarmey,-10.0681,-78.1522,64.06,84,16,7.16,PE,few clouds,2021-11-01 04:29:42
13,Yellowknife,62.456,-114.3525,33.42,99,90,13.8,CA,overcast clouds,2021-11-01 04:29:43
14,Boa Vista,2.8197,-60.6733,82.38,78,40,6.91,BR,scattered clouds,2021-11-01 04:29:44
15,Arraial Do Cabo,-22.9661,-42.0278,69.55,95,100,21.59,BR,moderate rain,2021-11-01 04:25:03
16,Albany,42.6001,-73.9662,53.8,80,54,10.92,US,broken clouds,2021-11-01 04:26:09
17,Sitka,57.0531,-135.33,48.09,43,40,8.05,US,scattered clouds,2021-11-01 04:29:45
18,Boysun,38.2061,67.1986,45.72,52,2,0.87,UZ,clear sky,2021-11-01 04:29:46
19,Aden,12.7794,45.0367,82.6,69,10,19.33,YE,clear sky,2021-11-01 04:29:46
20,Beirut,33.8889,35.4944,79.54,39,75,25.32,LB,broken clouds,2021-11-01 04:29:47
21,Urucara,-2.5364,-57.76,75.16,88,77,2.19,BR,broken clouds,2021-11-01 04:29:48
22,Sindor,62.8629,51.8905,22.98,92,98,5.95,RU,overcast clouds,2021-11-01 04:29:48
23,Jesus Carranza,17.4333,-95.0333,68.18,90,48,3.27,MX,scattered clouds,2021-11-01 04:29:49
24,Ushuaia,-54.8,-68.3,46.06,71,0,3.44,AR,clear sky,2021-11-01 04:29:50
25,Port Hedland,-20.3167,118.5667,80.65,61,90,11.5,AU,overcast clouds,2021-11-01 04:29:38
26,Puerto Ayora,-0.7393,-90.3518,68.9,92,37,6.11,EC,scattered clouds,2021-11-01 04:29:51
27,Los Llanos De Aridane,28.6585,-17.9182,70.12,25,0,5.01,ES,clear sky,2021-11-01 04:29:52
28,Atuona,-9.8,-139.0333,78.84,73,0,18.5,PF,clear sky,2021-11-01 04:27:26
29,Mizdah,31.4451,12.9801,64.51,37,5,10.22,LY,clear sky,2021-11-01 04:29:42
30,Chuy,-33.6971,-53.4616,63.07,98,94,6.2,UY,overcast clouds,2021-11-01 04:29:53
31,Hermanus,-34.4187,19.2345,61.81,77,100,13.22,ZA,overcast clouds,2021-11-01 04:29:54
32,Tasiilaq,65.6145,-37.6368,24.96,58,3,6.44,GL,clear sky,2021-11-01 04:29:18
33,Nieuw Amsterdam,5.8833,-55.0833,78.03,90,57,7.34,SR,broken clouds,2021-11-01 04:29:55
34,Qaanaaq,77.484,-69.3632,18.12,85,100,8.59,GL,overcast clouds,2021-11-01 04:26:33
35,Luanda,-8.8368,13.2343,75.2,78,75,5.75,AO,broken clouds,2021-11-01 04:29:56
36,Tuktoyaktuk,69.4541,-133.0374,30.2,80,75,14.97,CA,broken clouds,2021-11-01 04:29:57
37,Hilo,19.7297,-155.09,76.73,83,90,3.44,US,overcast clouds,2021-11-01 04:27:36
38,Champerico,14.3,-91.9167,81.36,86,100,6.76,GT,overcast clouds,2021-11-01 04:29:58
39,Souillac,-20.5167,57.5167,78.37,78,40,6.91,MU,scattered clouds,2021-11-01 04:25:51
40,Chitral,35.8462,71.7858,53.82,31,8,5.1,PK,clear sky,2021-11-01 04:29:58
41,Cape Town,-33.9258,18.4232,60.1,87,75,1.01,ZA,light rain,2021-11-01 04:29:01
42,Baghdad,33.3406,44.4009,67.91,64,0,6.91,IQ,clear sky,2021-11-01 04:26:30
43,Loandjili,-4.7561,11.8578,77.11,94,75,6.91,CG,light rain,2021-11-01 04:30:00
44,Axim,4.8699,-2.2405,77.86,86,99,10.27,GH,overcast clouds,2021-11-01 04:31:00
45,Nanortalik,60.1432,-45.2371,33.82,62,49,8.52,GL,scattered clouds,2021-11-01 04:31:01
46,Bredasdorp,-34.5322,20.0403,61.29,70,100,8.77,ZA,overcast clouds,2021-11-01 04:31:02
47,Avarua,-21.2078,-159.775,75.25,69,75,12.66,CK,broken clouds,2021-11-01 04:28:48
48,Barrow,71.2906,-156.7887,19.42,86,40,13.8,US,scattered clouds,2021-11-01 04:31:03
49,Namatanai,-3.6667,152.4333,85.14,67,63,11.74,PG,broken clouds,2021-11-01 04:31:04
50,Carnarvon,-24.8667,113.6333,73.47,53,29,16.11,AU,scattered clouds,2021-11-01 04:31:04
51,Busselton,-33.65,115.3333,60.04,58,78,20.36,AU,broken clouds,2021-11-01 04:29:28
52,Makakilo City,21.3469,-158.0858,79.12,70,20,8.05,US,few clouds,2021-11-01 04:30:43
53,Brae,60.3964,-1.353,49.91,87,59,19.48,GB,broken clouds,2021-11-01 04:31:06
54,Punta Arenas,-53.15,-70.9167,46.51,57,0,8.05,CL,clear sky,2021-11-01 04:30:45
55,Mar Del Plata,-38.0023,-57.5575,55.09,90,90,1.99,AR,overcast clouds,2021-11-01 04:31:07
56,Honiara,-9.4333,159.95,81.46,82,98,4.25,SB,overcast clouds,2021-11-01 04:31:08
57,Ribeira Grande,38.5167,-28.7,70.74,87,100,7.34,PT,overcast clouds,2021-11-01 04:31:08
58,Port Alfred,-33.5906,26.891,68.92,75,94,11.21,ZA,overcast clouds,2021-11-01 04:31:09
59,Mataura,-46.1927,168.8643,53.47,78,99,8.52,NZ,overcast clouds,2021-11-01 04:31:10
60,Polovinnoye,54.7914,65.9864,42.1,90,100,13.18,RU,overcast clouds,2021-11-01 04:31:10
61,Airai,-8.9266,125.4092,77.34,47,78,2.55,TL,broken clouds,2021-11-01 04:31:11
62,Taman,45.2117,36.7161,44.92,71,62,7.61,RU,broken clouds,2021-11-01 04:31:11
63,Kranjska Gora,46.4839,13.7894,46.56,95,41,5.68,SI,scattered clouds,2021-11-01 04:31:12
64,Valparaiso,-33.0393,-71.6273,57.47,74,40,0.0,CL,scattered clouds,2021-11-01 04:31:13
65,Meulaboh,4.1363,96.1285,84.7,67,99,5.12,ID,overcast clouds,2021-11-01 04:31:13
66,Port Lincoln,-34.7333,135.8667,67.77,52,29,7.65,AU,scattered clouds,2021-11-01 04:30:06
67,Grindavik,63.8424,-22.4338,35.55,75,75,23.02,IS,broken clouds,2021-11-01 04:31:14
68,Vaini,-21.2,-175.2,80.76,83,20,9.22,TO,few clouds,2021-11-01 04:27:49
69,Bathsheba,13.2167,-59.5167,74.01,88,75,17.27,BB,broken clouds,2021-11-01 04:31:15
70,Saint-Philippe,-21.3585,55.7679,78.48,81,61,8.97,RE,broken clouds,2021-11-01 04:27:59
71,Upernavik,72.7868,-56.1549,27.28,95,100,7.0,GL,light snow,2021-11-01 04:27:47
72,Yumen,40.2833,97.2,50.56,22,100,17.18,CN,overcast clouds,2021-11-01 04:31:16
73,Victoria,22.2855,114.1577,82.45,69,35,1.99,HK,scattered clouds,2021-11-01 04:26:55
74,Adrar,20.5022,-10.0711,80.89,21,75,7.99,MR,broken clouds,2021-11-01 04:29:43
75,Kapaa,22.0752,-159.319,78.78,83,90,4.61,US,overcast clouds,2021-11-01 04:28:21
76,Abu Kamal,34.4506,40.9171,70.47,55,71,11.1,SY,broken clouds,2021-11-01 04:31:18
77,Samarai,-10.6167,150.6667,83.64,78,100,15.03,PG,overcast clouds,2021-11-01 04:31:19
78,Almaznyy,48.0448,40.045,44.74,96,0,7.43,RU,clear sky,2021-11-01 04:31:19
79,Magadan,59.5667,150.8,13.77,56,1,2.24,RU,clear sky,2021-11-01 04:31:20
80,Palmer,42.1584,-72.3287,55.0,76,20,6.91,US,few clouds,2021-11-01 04:30:28
81,Saint George,37.1041,-113.5841,67.95,45,1,1.01,US,clear sky,2021-11-01 04:31:21
82,Hobart,-42.8794,147.3294,66.25,53,75,11.5,AU,broken clouds,2021-11-01 04:31:22
83,Thompson,55.7435,-97.8558,26.76,80,75,10.36,CA,broken clouds,2021-11-01 04:31:23
84,Robertsport,6.7533,-11.3686,76.57,85,92,6.35,LR,overcast clouds,2021-11-01 04:31:24
85,Bengkulu,-3.8004,102.2655,83.7,70,99,7.83,ID,overcast clouds,2021-11-01 04:31:24
86,Spasskoye,44.6108,132.7969,46.63,53,79,8.7,RU,broken clouds,2021-11-01 04:31:25
87,Scarborough,54.2797,-0.4044,48.07,88,78,7.0,GB,broken clouds,2021-11-01 04:27:48
88,San Andres,12.5847,-81.7006,78.82,94,90,9.22,CO,overcast clouds,2021-11-01 04:30:08
89,Torbay,47.6666,-52.7314,46.58,94,90,14.97,CA,light intensity drizzle,2021-11-01 04:29:45
90,Katsuura,35.1333,140.3,68.14,74,99,6.58,JP,overcast clouds,2021-11-01 04:29:57
91,Orchard Homes,46.8633,-114.0484,36.32,64,1,1.99,US,clear sky,2021-11-01 04:32:27
92,Richards Bay,-28.783,32.0377,68.74,77,37,8.86,ZA,scattered clouds,2021-11-01 04:31:24
93,Amahai,-3.3333,128.9167,85.71,66,97,6.06,ID,overcast clouds,2021-11-01 04:32:28
94,Havoysund,70.9963,24.6622,38.28,85,95,16.13,NO,overcast clouds,2021-11-01 04:32:28
95,Itaituba,-4.2761,-55.9836,74.59,94,67,2.35,BR,broken clouds,2021-11-01 04:28:08
96,Umuarama,-23.7664,-53.325,63.81,93,0,4.12,BR,clear sky,2021-11-01 04:32:29
97,Clyde River,70.4692,-68.5914,20.35,90,100,6.78,CA,overcast clouds,2021-11-01 04:29:28
98,Avera,33.194,-82.5271,55.71,83,0,5.64,US,clear sky,2021-11-01 04:32:31
99,Imbituba,-28.24,-48.6703,68.83,95,79,7.45,BR,broken clouds,2021-11-01 04:32:31
100,Haines Junction,60.7522,-137.5108,24.75,74,100,3.44,CA,overcast clouds,2021-11-01 04:32:32
101,Lorengau,-2.0226,147.2712,83.5,78,100,9.78,PG,overcast clouds,2021-11-01 04:31:25
102,Leningradskiy,69.3833,178.4167,-0.44,87,99,12.44,RU,overcast clouds,2021-11-01 04:27:40
103,Pisco,-13.7,-76.2167,60.03,88,0,2.3,PE,clear sky,2021-11-01 04:32:33
104,Penzance,50.1186,-5.5371,52.81,69,39,24.7,GB,scattered clouds,2021-11-01 04:32:34
105,Bethel,41.3712,-73.414,56.35,83,20,1.99,US,few clouds,2021-11-01 04:32:34
106,Quelimane,-17.8786,36.8883,78.75,89,75,4.61,MZ,broken clouds,2021-11-01 04:32:35
107,New Norfolk,-42.7826,147.0587,65.91,49,100,4.0,AU,overcast clouds,2021-11-01 04:32:35
108,Pevek,69.7008,170.3133,3.22,95,100,5.88,RU,light snow,2021-11-01 04:32:36
109,Santa Isabel Do Rio Negro,-0.4139,-65.0192,73.72,98,91,1.77,BR,overcast clouds,2021-11-01 04:32:37
110,Guaira,-20.3183,-48.3106,65.41,96,70,3.94,BR,broken clouds,2021-11-01 04:32:37
111,Tsuyama,35.05,134.0,70.83,50,100,3.11,JP,overcast clouds,2021-11-01 04:32:38
112,Balkanabat,39.5108,54.3671,62.11,40,6,11.72,TM,clear sky,2021-11-01 04:32:39
113,Kerrville,30.0474,-99.1403,64.92,79,1,3.44,US,clear sky,2021-11-01 04:32:39
114,Bunbury,-33.3333,115.6333,59.81,61,71,21.45,AU,broken clouds,2021-11-01 04:32:40
115,Salalah,17.0151,54.0924,77.09,57,0,1.14,OM,clear sky,2021-11-01 04:32:41
116,Cabo San Lucas,22.8909,-109.9124,79.9,80,12,1.99,MX,few clouds,2021-11-01 04:29:26
117,Haapiti,-17.5667,-149.8667,80.33,73,25,13.65,PF,scattered clouds,2021-11-01 04:32:42
118,Brookings,44.3114,-96.7984,32.29,78,20,0.0,US,few clouds,2021-11-01 04:32:42
119,Poum,-20.2333,164.0167,76.03,74,2,23.13,NC,clear sky,2021-11-01 04:32:43
120,Hami,42.8,93.45,53.49,40,100,4.56,CN,overcast clouds,2021-11-01 04:28:07
121,Sibolga,1.7427,98.7792,84.27,69,100,4.29,ID,overcast clouds,2021-11-01 04:32:44
122,Mandera,3.9366,41.867,81.46,57,17,10.85,KE,few clouds,2021-11-01 04:32:45
123,Milkovo,54.7167,158.6167,24.22,58,52,7.76,RU,broken clouds,2021-11-01 04:32:45
124,Turkistan,43.0,68.0,50.27,47,6,4.07,KZ,clear sky,2021-11-01 04:32:46
125,Buraydah,26.326,43.975,66.65,28,14,8.01,SA,few clouds,2021-11-01 04:29:29
126,Bluff,-46.6,168.3333,54.79,76,92,30.76,NZ,overcast clouds,2021-11-01 04:32:47
127,Ambilobe,-13.2,49.05,83.52,60,17,3.98,MG,few clouds,2021-11-01 04:32:47
128,Semenivka,52.1783,32.5818,36.99,75,0,7.25,UA,clear sky,2021-11-01 04:32:48
129,Emerald,-23.5333,148.1667,84.34,45,90,13.8,AU,overcast clouds,2021-11-01 04:32:49
130,Kirakira,-10.4544,161.9205,85.08,67,60,14.41,SB,broken clouds,2021-11-01 04:32:50
131,Phan Thiet,10.9333,108.1,86.11,68,60,10.31,VN,broken clouds,2021-11-01 04:32:51
132,San Vicente,-26.6167,-54.1333,60.28,97,0,3.13,AR,clear sky,2021-11-01 04:33:51
133,Ostrovnoy,68.0531,39.5131,31.06,82,86,17.58,RU,overcast clouds,2021-11-01 04:32:36
134,Saint Anthony,45.0205,-93.218,38.35,69,1,1.99,US,clear sky,2021-11-01 04:32:45
135,Namibe,-15.1961,12.1522,64.51,80,28,3.53,AO,scattered clouds,2021-11-01 04:32:07
136,Marzuq,14.4,46.4667,69.6,45,15,6.46,YE,few clouds,2021-11-01 04:33:54
137,Pacific Grove,36.6177,-121.9166,59.29,82,90,1.99,US,overcast clouds,2021-11-01 04:29:25
138,Kavieng,-2.5744,150.7967,85.41,68,65,13.65,PG,broken clouds,2021-11-01 04:33:55
139,Totma,59.9747,42.7642,36.3,97,100,5.35,RU,overcast clouds,2021-11-01 04:33:56
140,Port Keats,-14.25,129.55,91.67,50,39,12.21,AU,scattered clouds,2021-11-01 04:33:56
141,Novo Aripuana,-5.1206,-60.3797,74.86,87,97,0.87,BR,overcast clouds,2021-11-01 04:33:57
142,Tautira,-17.7333,-149.15,80.62,78,69,16.28,PF,broken clouds,2021-11-01 04:33:58
143,Novobirilyussy,56.9514,90.6661,23.23,65,100,12.5,RU,overcast clouds,2021-11-01 04:33:58
144,Lavrentiya,65.5833,-171.0,12.33,77,100,9.24,RU,overcast clouds,2021-11-01 04:33:59
145,Tura,25.5198,90.2201,76.93,48,0,0.16,IN,clear sky,2021-11-01 04:33:59
146,Constitucion,-35.3333,-72.4167,49.84,91,68,5.88,CL,broken clouds,2021-11-01 04:29:56
147,Jumla,29.2747,82.1838,58.82,37,0,5.86,NP,clear sky,2021-11-01 04:31:20
148,Castro,-24.7911,-50.0119,57.38,96,94,7.2,BR,overcast clouds,2021-11-01 04:31:57
149,Acapulco,16.8634,-99.8901,78.15,86,66,4.07,MX,broken clouds,2021-11-01 04:33:05
150,Georgetown,5.4112,100.3354,89.53,70,20,3.0,MY,few clouds,2021-11-01 04:34:01
151,Margate,51.3813,1.3862,51.04,74,77,4.0,GB,broken clouds,2021-11-01 04:33:27
152,Cairns,-16.9167,145.7667,92.07,58,40,19.57,AU,scattered clouds,2021-11-01 04:31:49
153,Yuanping,38.7153,112.7575,52.39,38,0,4.5,CN,clear sky,2021-11-01 04:34:03
154,Salamiyah,35.0113,37.0532,66.42,61,52,23.76,SY,broken clouds,2021-11-01 04:34:03
155,Waingapu,-9.6567,120.2641,87.76,61,79,9.17,ID,broken clouds,2021-11-01 04:32:45
156,Dingle,10.9995,122.6711,84.61,73,69,14.88,PH,broken clouds,2021-11-01 04:34:04
157,La Ronge,55.1001,-105.2842,28.65,74,90,5.75,CA,overcast clouds,2021-11-01 04:30:37
158,East London,-33.0153,27.9116,69.08,72,95,13.33,ZA,overcast clouds,2021-11-01 04:33:18
159,Aklavik,68.2191,-135.0107,34.52,90,100,6.62,CA,overcast clouds,2021-11-01 04:29:46
160,Ponta Do Sol,32.6667,-17.1,70.72,76,45,0.96,PT,scattered clouds,2021-11-01 04:34:06
161,Whitehorse,60.7161,-135.0538,33.03,64,75,15.01,CA,broken clouds,2021-11-01 04:34:06
162,Rawson,-43.3002,-65.1023,47.89,76,59,15.17,AR,broken clouds,2021-11-01 04:29:49
163,Saldanha,-33.0117,17.9442,62.65,74,77,15.84,ZA,light rain,2021-11-01 04:33:59
164,Shimanovsk,52.0,127.7,37.99,31,18,8.61,RU,few clouds,2021-11-01 04:34:08
165,Mecca,21.4267,39.8261,82.33,49,1,1.36,SA,clear sky,2021-11-01 04:34:04
166,Erenhot,43.6475,111.9767,43.2,32,2,8.66,CN,clear sky,2021-11-01 04:34:09
167,Hvolsvollur,63.7533,-20.2243,34.81,68,17,16.31,IS,few clouds,2021-11-01 04:34:09
168,Dikson,73.5069,80.5464,5.63,94,92,10.25,RU,overcast clouds,2021-11-01 04:29:51
169,Saint-Dizier,48.4167,5.0833,50.05,92,85,10.29,FR,overcast clouds,2021-11-01 04:34:10
170,Hithadhoo,-0.6,73.0833,82.96,73,88,19.73,MV,overcast clouds,2021-11-01 04:34:11
171,Treinta Y Tres,-33.2333,-54.3833,60.94,100,79,4.94,UY,broken clouds,2021-11-01 04:34:11
172,North Bend,43.4065,-124.2243,55.94,100,90,0.0,US,overcast clouds,2021-11-01 04:29:39
173,Olafsvik,64.8945,-23.7142,34.5,68,29,16.6,IS,scattered clouds,2021-11-01 04:34:13
174,Fort Saint James,54.4333,-124.25,26.74,66,6,1.21,CA,clear sky,2021-11-01 04:34:13
175,Vilhena,-12.7406,-60.1458,68.5,90,100,2.24,BR,overcast clouds,2021-11-01 04:34:14
176,Portland,45.5234,-122.6762,54.19,47,1,3.0,US,clear sky,2021-11-01 04:30:49
177,Wamba,8.9333,8.6,71.19,77,49,2.95,NG,scattered clouds,2021-11-01 04:35:15
178,Vestmannaeyjar,63.4427,-20.2734,37.42,68,14,26.96,IS,few clouds,2021-11-01 04:35:15
179,Lokoja,7.8024,6.743,73.96,94,46,2.98,NG,scattered clouds,2021-11-01 04:35:16
180,Takoradi,4.8845,-1.7554,77.14,88,96,10.22,GH,overcast clouds,2021-11-01 04:35:09
181,Oswiecim,50.0344,19.2104,48.74,61,0,2.59,PL,clear sky,2021-11-01 04:35:17
182,Qazvin,36.2797,50.0049,49.62,93,73,0.0,IR,broken clouds,2021-11-01 04:34:13
183,Aykhal,66.0,111.5,4.69,94,97,17.45,RU,overcast clouds,2021-11-01 04:35:18
184,Lac Du Bonnet,50.2536,-96.0612,32.54,92,100,7.0,CA,light snow,2021-11-01 04:35:19
185,Mahebourg,-20.4081,57.7,78.26,78,40,6.91,MU,scattered clouds,2021-11-01 04:35:19
186,Nenjiang,49.1833,125.2167,42.04,26,18,9.06,CN,few clouds,2021-11-01 04:35:20
187,Belmonte,-15.8631,-38.8828,77.5,87,58,6.71,BR,broken clouds,2021-11-01 04:35:21
188,Tuy Hoa,13.0833,109.3,83.17,75,80,9.22,VN,broken clouds,2021-11-01 04:35:21
189,Touros,-5.1989,-35.4608,81.5,78,70,14.2,BR,broken clouds,2021-11-01 04:35:22
190,Norman Wells,65.282,-126.8329,12.24,85,40,4.61,CA,scattered clouds,2021-11-01 04:35:22
191,Den Helder,52.9599,4.7593,51.98,83,75,21.99,NL,broken clouds,2021-11-01 04:35:23
192,Kuching,1.55,110.3333,88.02,70,40,4.61,MY,scattered clouds,2021-11-01 04:32:53
193,Vila Velha,-20.3297,-40.2925,69.75,100,90,2.3,BR,light rain,2021-11-01 04:31:26
194,Artesia,33.8658,-118.0831,64.72,86,1,3.44,US,clear sky,2021-11-01 04:30:45
195,Povenets,62.8487,34.8262,42.8,97,100,7.49,RU,overcast clouds,2021-11-01 04:35:25
196,Barahona,18.2085,-71.1008,77.43,80,16,1.72,DO,few clouds,2021-11-01 04:35:25
197,Malinovskiy,61.1953,62.8397,17.85,89,99,7.63,RU,overcast clouds,2021-11-01 04:35:26
198,Tombouctou,20.0,-3.0,75.31,24,1,11.03,ML,clear sky,2021-11-01 04:35:26
199,Filadelfia,39.9523,-75.1638,55.26,83,1,1.01,US,clear sky,2021-11-01 04:33:33
200,Bay Roberts,47.5999,-53.2648,47.34,90,100,4.0,CA,overcast clouds,2021-11-01 04:35:27
201,Nuuk,64.1835,-51.7216,38.01,81,75,19.57,GL,broken clouds,2021-11-01 04:35:28
202,Gallup,35.5281,-108.7426,48.02,43,1,0.0,US,clear sky,2021-11-01 04:35:29
203,Loei,17.4167,101.5,74.57,88,99,4.27,TH,overcast clouds,2021-11-01 04:35:29
204,Isangel,-19.55,169.2667,77.05,64,74,12.82,VU,broken clouds,2021-11-01 04:35:30
205,Gayny,60.3071,54.3241,35.26,98,100,5.39,RU,light rain,2021-11-01 04:35:30
206,Cookeville,36.1628,-85.5016,48.99,98,75,0.0,US,mist,2021-11-01 04:35:31
207,Koslan,63.4564,48.8989,25.3,88,98,7.02,RU,overcast clouds,2021-11-01 04:32:58
208,Talnakh,69.4865,88.3972,-11.81,98,87,4.47,RU,overcast clouds,2021-11-01 04:35:32
209,Akureyri,65.6835,-18.0878,33.73,86,90,16.11,IS,light rain,2021-11-01 04:35:09
210,Geraldton,-28.7667,114.6,70.21,43,47,19.57,AU,scattered clouds,2021-11-01 04:30:50
211,Sao Joao Da Barra,-21.6403,-41.0511,69.96,93,100,16.15,BR,light rain,2021-11-01 04:35:33
212,Suraabad,40.8192,49.4687,57.38,74,83,10.25,AZ,broken clouds,2021-11-01 04:35:34
213,Bam,29.106,58.357,71.62,26,0,13.2,IR,clear sky,2021-11-01 04:35:29
214,Idaho Falls,43.4666,-112.0341,49.62,76,1,8.05,US,clear sky,2021-11-01 04:35:35
215,Svetlogorsk,52.6333,29.7333,36.81,81,0,7.38,BY,clear sky,2021-11-01 04:35:36
216,Zhanakorgan,43.9098,67.2495,48.61,50,13,4.0,KZ,few clouds,2021-11-01 04:35:36
217,Berlevag,70.8578,29.0864,32.0,83,83,16.08,NO,broken clouds,2021-11-01 04:35:37
218,Cidreira,-30.1811,-50.2056,67.23,90,7,19.86,BR,clear sky,2021-11-01 04:32:48
219,Dir,35.2058,71.8756,61.56,21,35,1.95,PK,scattered clouds,2021-11-01 04:35:38
220,Necochea,-38.5473,-58.7368,50.04,82,100,9.24,AR,overcast clouds,2021-11-01 04:31:10
221,Nelson Bay,-32.7167,152.15,73.78,64,100,1.01,AU,overcast clouds,2021-11-01 04:36:39
222,Greenwood,34.1668,-82.1165,53.04,54,1,4.61,US,clear sky,2021-11-01 04:35:20
223,Severnyy,50.677,36.5532,33.84,93,0,4.47,RU,clear sky,2021-11-01 04:36:40
224,Nara,34.6851,135.8049,74.91,49,99,3.04,JP,overcast clouds,2021-11-01 04:36:41
225,Fort Nelson,58.8053,-122.7002,18.99,79,20,0.0,CA,few clouds,2021-11-01 04:36:41
226,Ulladulla,-35.35,150.4667,80.76,54,81,15.37,AU,broken clouds,2021-11-01 04:36:42
227,Asau,46.4333,26.4,38.32,95,1,4.5,RO,clear sky,2021-11-01 04:31:26
228,Flinders,-34.5833,150.8552,77.81,65,100,5.01,AU,overcast clouds,2021-11-01 04:36:43
229,Ust-Koksa,50.2696,85.6108,27.52,68,100,4.92,RU,overcast clouds,2021-11-01 04:36:44
230,Ulaangom,49.9811,92.0667,43.2,21,49,11.41,MN,scattered clouds,2021-11-01 04:36:44
231,Arona,28.0996,-16.681,67.57,78,0,12.66,ES,clear sky,2021-11-01 04:36:45
232,Kruisfontein,-34.0033,24.7314,61.88,81,100,22.19,ZA,overcast clouds,2021-11-01 04:35:45
233,Valera,9.3178,-70.6036,70.79,93,93,3.74,VE,overcast clouds,2021-11-01 04:36:47
234,Tuatapere,-46.1333,167.6833,55.2,73,94,12.26,NZ,overcast clouds,2021-11-01 04:36:47
235,Agadez,19.75,10.25,72.18,29,69,9.1,NE,broken clouds,2021-11-01 04:36:48
236,Lat Yao,15.751,99.7893,84.29,74,99,0.58,TH,overcast clouds,2021-11-01 04:36:49
237,Pavilosta,56.8879,21.1859,46.31,74,21,14.63,LV,few clouds,2021-11-01 04:36:50
238,Aripuana,-9.1667,-60.6333,73.87,88,83,0.69,BR,broken clouds,2021-11-01 04:36:50
239,Hamilton,39.1834,-84.5333,51.55,82,90,1.99,US,overcast clouds,2021-11-01 04:32:49
240,Badulla,6.9895,81.0557,81.1,69,85,3.04,LK,overcast clouds,2021-11-01 04:36:51
241,Gunjur,13.2019,-16.7339,77.07,94,0,3.44,GM,clear sky,2021-11-01 04:36:52
242,Korla,41.7597,86.1469,54.54,22,13,4.38,CN,few clouds,2021-11-01 04:36:53
243,Vardo,70.3705,31.1107,34.0,76,96,17.76,NO,overcast clouds,2021-11-01 04:34:20
244,Chapais,49.7834,-74.8492,40.78,95,100,10.96,CA,overcast clouds,2021-11-01 04:36:54
245,Cullman,34.1748,-86.8436,54.27,91,1,0.0,US,mist,2021-11-01 04:34:21
246,Zhezkazgan,47.8043,67.7144,45.55,64,100,17.34,KZ,overcast clouds,2021-11-01 04:36:55
247,Kuito,-12.3833,16.9333,61.56,87,100,2.04,AO,overcast clouds,2021-11-01 04:36:55
248,Kayes,14.0,-11.0,80.17,46,18,0.47,ML,few clouds,2021-11-01 04:36:56
249,Port-Cartier,50.0334,-66.8654,50.22,96,100,14.76,CA,overcast clouds,2021-11-01 04:36:57
250,Jaru,-10.4389,-62.4664,73.58,90,96,2.73,BR,overcast clouds,2021-11-01 04:36:58
251,Taltal,-25.4,-70.4833,59.92,82,31,0.13,CL,scattered clouds,2021-11-01 04:36:58
252,Mana,5.6592,-53.7767,77.76,86,43,6.91,GF,scattered clouds,2021-11-01 04:34:13
253,San Policarpo,12.1791,125.5072,82.78,78,69,12.88,PH,broken clouds,2021-11-01 04:36:59
254,Kaitangata,-46.2817,169.8464,57.92,59,94,11.95,NZ,overcast clouds,2021-11-01 04:37:00
255,Khani,41.9563,42.9566,53.17,71,99,6.82,GE,overcast clouds,2021-11-01 04:37:01
256,Vila Franca Do Campo,37.7167,-25.4333,73.2,95,100,6.04,PT,overcast clouds,2021-11-01 04:33:36
257,Kapit,2.0167,112.9333,90.37,55,100,1.43,MY,overcast clouds,2021-11-01 04:37:02
258,Petropavlovsk-Kamchatskiy,53.0452,158.6483,36.19,38,40,11.18,RU,scattered clouds,2021-11-01 04:36:37
259,Edson,53.5835,-116.4356,19.54,73,1,4.61,CA,clear sky,2021-11-01 04:37:03
260,Jacksonville,30.3322,-81.6556,57.97,87,20,6.91,US,few clouds,2021-11-01 04:36:55
261,Cerro Largo,-28.1486,-54.7381,67.55,86,53,4.56,BR,broken clouds,2021-11-01 04:37:04
262,Ancud,-41.8697,-73.8203,53.13,94,12,10.33,CL,few clouds,2021-11-01 04:32:08
263,Tiksi,71.6872,128.8694,5.36,89,96,7.45,RU,overcast clouds,2021-11-01 04:32:46
264,Atar,20.5169,-13.0499,77.32,20,1,5.26,MR,clear sky,2021-11-01 04:38:05
265,Hienghene,-20.6833,164.9333,76.39,55,46,2.08,NC,scattered clouds,2021-11-01 04:38:06
266,Khatanga,71.9667,102.5,5.94,95,100,11.68,RU,light snow,2021-11-01 04:38:07
267,Marion,39.7684,-86.1555,46.53,84,1,6.91,US,clear sky,2021-11-01 04:38:07
268,Manicore,-5.8092,-61.3003,76.23,84,84,0.65,BR,broken clouds,2021-11-01 04:38:08
269,Comodoro Rivadavia,-45.8667,-67.5,44.46,81,0,3.44,AR,clear sky,2021-11-01 04:38:09
270,Dongkan,33.9997,119.8308,62.83,67,81,11.14,CN,broken clouds,2021-11-01 04:38:09
271,Rancho Palos Verdes,33.7445,-118.387,62.11,89,100,3.0,US,overcast clouds,2021-11-01 04:37:53
272,Iqaluit,63.7506,-68.5145,28.13,79,75,5.01,CA,broken clouds,2021-11-01 04:28:51
273,Roma,43.2128,-75.4557,53.74,80,90,10.36,US,overcast clouds,2021-11-01 04:38:10
274,Port Hardy,50.6996,-127.4199,50.0,75,1,3.44,CA,clear sky,2021-11-01 04:38:11
275,Kuryk,43.2,51.65,54.21,43,99,18.63,KZ,overcast clouds,2021-11-01 04:38:12
276,Doha,25.2867,51.5333,82.38,71,0,6.91,QA,clear sky,2021-11-01 04:38:12
277,Mapiripan,2.8892,-72.1256,71.98,98,100,3.36,CO,overcast clouds,2021-11-01 04:38:13
278,Tucumcari,35.1717,-103.725,42.64,61,1,6.91,US,clear sky,2021-11-01 04:35:44
279,Wilson,36.1501,-86.2833,52.99,76,75,3.44,US,broken clouds,2021-11-01 04:38:14
280,Nikolskoye,59.7035,30.7861,48.09,94,94,5.57,RU,overcast clouds,2021-11-01 04:38:15
281,Jiuquan,39.7432,98.5174,51.82,21,65,5.14,CN,broken clouds,2021-11-01 04:38:15
282,Mananara,-16.1667,49.7667,78.51,79,24,2.57,MG,light rain,2021-11-01 04:38:16
283,Verkhnyaya Inta,65.9811,60.3094,2.95,88,5,4.59,RU,clear sky,2021-11-01 04:38:16
284,Ha Giang,22.8333,104.9833,69.55,99,100,1.39,VN,overcast clouds,2021-11-01 04:38:17
285,Klaksvik,62.2266,-6.589,41.92,72,100,18.77,FO,overcast clouds,2021-11-01 04:28:12
286,Gemena,3.25,19.7667,68.95,99,100,1.14,CD,overcast clouds,2021-11-01 04:38:18
287,Tabas,33.5959,56.9244,70.29,25,48,2.04,IR,scattered clouds,2021-11-01 04:38:19
288,Cayenne,4.9333,-52.3333,82.09,83,75,3.0,GF,broken clouds,2021-11-01 04:38:19
289,Qaqortoq,60.7167,-46.0333,25.3,62,29,7.16,GL,scattered clouds,2021-11-01 04:38:20
290,San Carlos De Bariloche,-41.1456,-71.3082,44.35,57,40,8.05,AR,scattered clouds,2021-11-01 04:31:15
291,Kasiri,8.9412,-13.1148,77.18,89,100,5.7,SL,overcast clouds,2021-11-01 04:38:21
292,Kahului,20.8947,-156.47,78.82,79,20,3.44,US,few clouds,2021-11-01 04:38:21
293,Popondetta,-8.7537,148.2534,90.36,46,88,7.34,PG,overcast clouds,2021-11-01 04:38:22
294,Hanyang,32.1371,105.5126,58.39,82,100,2.59,CN,overcast clouds,2021-11-01 04:38:22
295,Harindanga,22.0383,88.3214,84.18,52,8,8.25,IN,clear sky,2021-11-01 04:38:23
296,Laela,-8.5667,32.05,68.4,66,88,4.32,TZ,overcast clouds,2021-11-01 04:38:24
297,Kununurra,-15.7667,128.7333,94.98,38,51,6.91,AU,broken clouds,2021-11-01 04:35:44
298,Cabedelo,-6.9811,-34.8339,77.67,74,54,11.59,BR,broken clouds,2021-11-01 04:38:24
299,Luganville,-15.5333,167.1667,80.51,75,47,9.8,VU,scattered clouds,2021-11-01 04:38:25
300,Chokwe,-24.5333,32.9833,72.99,68,0,2.24,MZ,clear sky,2021-11-01 04:38:26
301,Muros,42.7762,-9.0603,56.23,96,33,8.19,ES,scattered clouds,2021-11-01 04:38:26
302,Miraflores,19.2167,-98.8083,62.02,74,100,3.18,MX,overcast clouds,2021-11-01 04:38:27
303,Colac,-38.3333,143.5833,70.16,45,3,4.41,AU,clear sky,2021-11-01 04:38:27
304,Kita,13.0349,-9.4895,73.99,61,29,2.19,ML,scattered clouds,2021-11-01 04:35:26
305,Mareeba,-17.0,145.4333,88.45,58,78,12.17,AU,broken clouds,2021-11-01 04:38:28
306,Bafq,31.6128,55.4107,69.03,31,0,2.28,IR,clear sky,2021-11-01 04:38:29
307,Jobat,22.4167,74.5667,79.48,34,14,10.83,IN,few clouds,2021-11-01 04:38:30
308,Eagle Pass,28.7091,-100.4995,75.27,46,21,14.09,US,few clouds,2021-11-01 04:38:31
309,Kuznechikha,57.2161,42.3348,36.75,93,16,7.81,RU,few clouds,2021-11-01 04:38:31
310,Santa Maria,-29.6842,-53.8069,68.63,89,82,3.44,BR,broken clouds,2021-11-01 04:36:50
311,Wanning,18.8003,110.3967,78.89,87,48,9.06,CN,scattered clouds,2021-11-01 04:39:32
312,Longview,32.5007,-94.7405,62.71,73,1,0.0,US,clear sky,2021-11-01 04:37:14
313,Lander,42.833,-108.7307,32.97,89,100,4.14,US,overcast clouds,2021-11-01 04:39:33
314,Ormara,25.2088,64.6357,84.09,31,0,21.25,PK,clear sky,2021-11-01 04:39:34
315,Sorland,67.667,12.6934,46.47,79,47,15.23,NO,scattered clouds,2021-11-01 04:31:31
316,Bonfim,3.0833,-59.95,78.31,78,72,7.61,BR,broken clouds,2021-11-01 04:39:35
317,General Pico,-35.6566,-63.7568,52.36,97,100,5.28,AR,moderate rain,2021-11-01 04:39:35
318,Sinnamary,5.3833,-52.95,78.31,85,83,6.82,GF,broken clouds,2021-11-01 04:39:36
319,Hauge,58.3436,6.2812,52.7,85,47,15.61,NO,scattered clouds,2021-11-01 04:39:36
320,Okhtyrka,50.3104,34.8988,38.19,88,0,7.34,UA,clear sky,2021-11-01 04:38:34
321,Port Elizabeth,-33.918,25.5701,64.09,88,20,20.71,ZA,few clouds,2021-11-01 04:31:13
322,Katav-Ivanovsk,54.7531,58.1956,41.45,87,100,9.95,RU,overcast clouds,2021-11-01 04:39:38
323,Corredor,8.64,-82.946,79.5,97,100,1.88,CR,overcast clouds,2021-11-01 04:39:38
324,Srednekolymsk,67.45,153.6833,-9.99,97,48,3.56,RU,scattered clouds,2021-11-01 04:31:08
325,Banyo,6.75,11.8167,63.75,88,39,2.73,CM,scattered clouds,2021-11-01 04:39:39
326,Orlik,52.5178,99.825,33.75,50,100,7.72,RU,overcast clouds,2021-11-01 04:39:40
327,Nkhotakota,-12.9274,34.2961,82.17,56,8,10.76,MW,clear sky,2021-11-01 04:39:40
328,Athabasca,54.7169,-113.2854,26.42,56,4,6.15,CA,clear sky,2021-11-01 04:39:41
329,Smoky Lake,54.1169,-112.4686,25.52,63,1,5.75,CA,clear sky,2021-11-01 04:39:41
330,Lasalgaon,20.15,74.2333,78.84,36,47,5.82,IN,scattered clouds,2021-11-01 04:39:42
331,Sabinas Hidalgo,26.5,-100.1667,69.06,74,0,5.77,MX,clear sky,2021-11-01 04:39:43
332,Bow Island,49.8668,-111.3684,24.82,86,0,4.61,CA,clear sky,2021-11-01 04:39:43
333,Vostok,46.4856,135.8833,43.77,45,6,3.42,RU,clear sky,2021-11-01 04:29:54
334,San Jose,37.3394,-121.895,60.33,71,94,1.01,US,overcast clouds,2021-11-01 04:35:56
335,Paamiut,61.994,-49.6678,31.03,69,92,10.63,GL,overcast clouds,2021-11-01 04:39:44
336,Wanaka,-44.7,169.15,60.15,55,44,9.1,NZ,scattered clouds,2021-11-01 04:39:42
337,Ndele,8.4109,20.6473,71.1,76,84,3.04,CF,broken clouds,2021-11-01 04:39:45
338,Coquimbo,-29.9533,-71.3436,55.13,94,75,2.3,CL,broken clouds,2021-11-01 04:38:51
339,Laguna,38.421,-121.4238,61.23,82,1,0.0,US,clear sky,2021-11-01 04:39:46
340,Vila Do Maio,15.1333,-23.2167,77.79,78,99,14.99,CV,overcast clouds,2021-11-01 04:39:47
341,Arman,59.7,150.1667,16.3,45,0,3.36,RU,clear sky,2021-11-01 04:39:47
342,Strelka,58.0728,93.0344,25.03,71,100,13.76,RU,overcast clouds,2021-11-01 04:39:48
343,Ilhabela,-23.7781,-45.3581,69.89,97,100,6.55,BR,light rain,2021-11-01 04:35:09
344,Crotone,39.0851,17.1178,62.69,93,100,12.97,IT,overcast clouds,2021-11-01 04:39:49
345,Mwinilunga,-11.7358,24.4293,65.55,85,97,2.71,ZM,overcast clouds,2021-11-01 04:39:49
346,Tarakan,3.3,117.6333,89.1,62,75,10.36,ID,broken clouds,2021-11-01 04:39:50
347,Taoudenni,22.6783,-3.9836,75.11,24,0,11.23,ML,clear sky,2021-11-01 04:39:51
348,Waipawa,-41.4122,175.5153,60.3,61,68,3.71,NZ,broken clouds,2021-11-01 04:39:51
349,Sambava,-14.2667,50.1667,79.34,72,24,4.9,MG,light rain,2021-11-01 04:39:52
350,Shagonar,51.5333,92.8,40.51,29,99,15.08,RU,overcast clouds,2021-11-01 04:39:53
351,Olinda,-8.0089,-34.8553,80.33,74,40,6.91,BR,scattered clouds,2021-11-01 04:39:54
352,Broome,42.2506,-75.833,52.9,79,75,1.01,US,broken clouds,2021-11-01 04:34:05
353,Mokobeng,-22.9965,27.6678,67.93,66,0,13.29,BW,clear sky,2021-11-01 04:39:55
354,Valdosta,30.8327,-83.2785,53.15,94,1,0.0,US,clear sky,2021-11-01 04:39:56
355,Skibbereen,51.55,-9.2667,46.2,79,23,15.82,IE,few clouds,2021-11-01 04:32:39
356,Fairbanks,64.8378,-147.7164,46.36,41,1,10.36,US,clear sky,2021-11-01 04:31:09
357,Berdigestyakh,62.0989,126.6992,18.95,80,98,2.55,RU,overcast clouds,2021-11-01 04:40:57
358,Tahta,26.7693,31.5021,73.72,35,0,7.76,EG,clear sky,2021-11-01 04:40:58
359,Corn Island,12.1694,-83.0418,82.42,78,99,22.39,NI,overcast clouds,2021-11-01 04:40:58
360,Verkhnyaya Toyma,62.2349,44.9985,38.17,99,100,2.93,RU,light rain,2021-11-01 04:40:59
361,Iskateley,67.6803,53.1512,6.71,94,5,2.71,RU,clear sky,2021-11-01 04:41:00
362,Kijang,35.2442,129.2139,71.33,28,58,0.45,KR,broken clouds,2021-11-01 04:41:00
363,Kodiak,57.79,-152.4072,42.08,89,100,1.05,US,overcast clouds,2021-11-01 04:41:01
364,Lebu,-37.6167,-73.65,50.34,93,80,6.51,CL,broken clouds,2021-11-01 04:41:02
365,Padang,-0.9492,100.3543,86.05,73,100,4.43,ID,light rain,2021-11-01 04:41:02
366,San Juan,-31.5375,-68.5364,56.14,69,100,7.16,AR,overcast clouds,2021-11-01 04:41:03
367,Ereymentau,51.6199,73.1033,38.05,96,100,19.15,KZ,overcast clouds,2021-11-01 04:41:04
368,Husavik,66.0449,-17.3389,33.71,99,100,18.68,IS,light rain,2021-11-01 04:34:12
369,Dossor,47.5272,52.9811,49.26,64,0,3.76,KZ,clear sky,2021-11-01 04:41:04
370,Duki,30.1541,68.5728,72.1,16,0,4.97,PK,clear sky,2021-11-01 04:41:05
371,Gimli,50.6336,-96.9907,35.44,86,94,9.22,CA,light rain,2021-11-01 04:41:06
372,Prince Rupert,54.3161,-130.3201,51.49,59,7,18.41,CA,clear sky,2021-11-01 04:41:06
373,Porto Santo,33.072,-16.3415,71.98,83,75,8.05,PT,broken clouds,2021-11-01 04:41:07
374,Booue,-0.0921,11.9385,71.85,100,100,2.19,GA,light rain,2021-11-01 04:41:08
375,Taft,31.7471,54.2088,53.55,41,0,2.3,IR,clear sky,2021-11-01 04:41:08
376,San Rafael Del Sur,11.8485,-86.4384,76.17,84,65,5.68,NI,broken clouds,2021-11-01 04:41:09
377,Deputatskiy,69.3,139.9,4.57,89,100,1.68,RU,overcast clouds,2021-11-01 04:39:19
378,Hualmay,-11.0964,-77.6139,63.79,83,21,6.4,PE,few clouds,2021-11-01 04:35:34
379,Sitio Novo Do Tocantins,-5.5183,-47.4611,80.53,78,0,5.75,BR,clear sky,2021-11-01 04:41:10
380,Prado,-17.3411,-39.2208,74.7,85,40,9.66,BR,scattered clouds,2021-11-01 04:31:28
381,Pushkino,56.0172,37.8667,37.69,83,5,6.73,RU,clear sky,2021-11-01 04:41:11
382,Tucuman,-26.8241,-65.2226,69.8,88,90,0.0,AR,overcast clouds,2021-11-01 04:37:19
383,Harrison,30.4091,-89.0436,55.47,95,1,0.0,US,clear sky,2021-11-01 04:36:52
384,Kaeo,-35.1,173.7833,64.33,63,92,6.51,NZ,overcast clouds,2021-11-01 04:35:48
385,Bichena,10.45,38.2,54.93,71,11,4.92,ET,few clouds,2021-11-01 04:41:13
386,Placerville,38.7296,-120.7986,56.73,89,90,3.44,US,overcast clouds,2021-11-01 04:41:14
387,Sistranda,63.7256,8.834,48.9,65,100,37.07,NO,overcast clouds,2021-11-01 04:41:14
388,Yulara,-25.2406,130.9889,87.64,30,15,6.91,AU,few clouds,2021-11-01 04:39:47
389,Tiznit,29.5833,-9.5,60.17,42,0,0.76,MA,clear sky,2021-11-01 04:41:15
390,Toyooka,35.5333,134.8333,69.91,68,75,5.75,JP,broken clouds,2021-11-01 04:41:16
391,Vermillion,42.7794,-96.9292,36.03,56,37,5.19,US,scattered clouds,2021-11-01 04:41:16
392,Humberto De Campos,-2.5983,-43.4611,75.7,93,91,5.48,BR,overcast clouds,2021-11-01 04:41:17
393,Sohag,26.557,31.6948,73.69,38,0,9.37,EG,clear sky,2021-11-01 04:40:48
394,Spencer,43.1414,-95.1444,34.52,80,1,6.91,US,clear sky,2021-11-01 04:41:18
395,Canico,32.6333,-16.85,72.68,84,20,1.14,PT,few clouds,2021-11-01 04:41:18
396,Goderich,43.7501,-81.7165,48.52,57,89,19.57,CA,overcast clouds,2021-11-01 04:31:23
397,Ialibu,-6.2821,143.9935,65.03,82,99,3.13,PG,overcast clouds,2021-11-01 04:41:19
398,Awbari,26.5921,12.7805,64.18,32,0,2.93,LY,clear sky,2021-11-01 04:41:20
399,Coihaique,-45.5752,-72.0662,49.95,53,0,4.61,CL,clear sky,2021-11-01 04:41:20
400,Fukue,32.6881,128.8419,71.96,56,75,13.8,JP,broken clouds,2021-11-01 04:41:21
401,Naze,28.3667,129.4833,70.72,77,25,14.45,JP,scattered clouds,2021-11-01 04:40:42
402,Golynki,54.8696,31.3861,36.12,84,1,7.25,RU,clear sky,2021-11-01 04:41:22
403,Jiangyou,31.7667,104.7167,60.62,72,100,3.65,CN,overcast clouds,2021-11-01 04:41:22
404,Phaltan,17.9833,74.4333,81.73,50,61,6.69,IN,broken clouds,2021-11-01 04:41:23
405,Hailar,49.2,119.7,40.71,28,6,12.48,CN,clear sky,2021-11-01 04:41:41
406,Tabat,-2.635,115.2274,88.81,58,90,3.56,ID,overcast clouds,2021-11-01 04:42:24
407,Wahiawa,21.5028,-158.0236,77.32,76,20,8.05,US,few clouds,2021-11-01 04:42:24
408,Tilichiki,60.4667,166.1,-4.63,93,17,11.07,RU,few clouds,2021-11-01 04:34:01
409,Karratha,-20.7377,116.8463,80.46,49,4,16.33,AU,clear sky,2021-11-01 04:42:25
410,Esna,25.2934,32.554,69.82,35,21,8.88,EG,few clouds,2021-11-01 04:42:26
411,San Diego De La Union,21.4667,-100.8667,61.09,61,100,4.05,MX,overcast clouds,2021-11-01 04:42:26
412,Kortkeros,61.8106,51.5806,32.0,90,100,6.67,RU,overcast clouds,2021-11-01 04:42:28
413,Alice Springs,-23.7,133.8833,85.55,37,40,5.75,AU,scattered clouds,2021-11-01 04:42:28
414,Ixtapa,20.7,-105.2,73.24,94,12,2.73,MX,few clouds,2021-11-01 04:42:29
415,Borogontsy,62.6683,131.1683,12.78,88,100,3.11,RU,overcast clouds,2021-11-01 04:42:29
416,Marsa Matruh,31.3525,27.2453,64.6,82,0,17.27,EG,clear sky,2021-11-01 04:42:30
417,Porto Novo,6.4965,2.6036,76.82,87,97,7.27,BJ,overcast clouds,2021-11-01 04:35:40
418,Moramanga,-18.9333,48.2,74.12,58,23,4.79,MG,few clouds,2021-11-01 04:42:31
419,Mercedes,-34.6515,-59.4307,60.84,82,85,11.65,AR,light rain,2021-11-01 04:42:32
420,Vao,-22.6667,167.4833,71.73,74,23,23.13,NC,few clouds,2021-11-01 04:35:49
421,Marabba,12.35,32.1833,85.87,43,95,4.12,SD,overcast clouds,2021-11-01 04:42:32
422,Catamarca,-28.4696,-65.7852,63.05,94,100,4.0,AR,overcast clouds,2021-11-01 04:39:10
423,Berezovyy,51.6667,135.7,39.72,32,9,3.8,RU,clear sky,2021-11-01 04:42:33
424,Camacha,33.0833,-16.3333,69.22,83,75,8.05,PT,broken clouds,2021-11-01 04:40:22
425,Pombas,17.1503,-25.0201,74.98,82,99,10.69,CV,overcast clouds,2021-11-01 04:42:34
426,Belaya Gora,68.5333,146.4167,-7.26,99,91,1.97,RU,overcast clouds,2021-11-01 04:41:14
427,Brokopondo,4.75,-55.1667,75.81,91,95,6.67,SR,overcast clouds,2021-11-01 04:42:35
428,Marsh Harbour,26.5412,-77.0636,76.1,63,10,5.39,BS,clear sky,2021-11-01 04:42:36
429,Lethem,3.3803,-59.7968,75.67,87,82,6.4,GY,broken clouds,2021-11-01 04:42:36
430,Guerrero Negro,27.9769,-114.0611,62.96,87,0,9.66,MX,clear sky,2021-11-01 04:41:20
431,Maceio,-9.6658,-35.7353,76.44,94,40,2.3,BR,scattered clouds,2021-11-01 04:32:50
432,Ilulissat,69.2167,-51.1,33.82,80,75,12.66,GL,light rain,2021-11-01 04:34:23
433,Sobolevo,54.4299,31.8996,35.85,83,0,7.11,RU,clear sky,2021-11-01 04:35:39
434,Benton Harbor,42.1167,-86.4542,49.1,46,75,11.5,US,broken clouds,2021-11-01 04:42:38
435,Aswan,24.0934,32.907,80.4,32,91,7.31,EG,overcast clouds,2021-11-01 04:42:39
436,Victoria Point,-27.5833,153.3,76.48,55,85,4.0,AU,overcast clouds,2021-11-01 04:42:39
437,Nyimba,-14.5566,30.8149,84.29,33,8,6.46,ZM,clear sky,2021-11-01 04:42:40
438,Peterhead,57.5058,-1.7981,43.2,85,31,11.43,GB,moderate rain,2021-11-01 04:42:41
439,Bereda,43.2686,-7.5406,50.41,92,95,3.62,ES,overcast clouds,2021-11-01 04:42:41
440,Villa Bruzual,9.3328,-69.1208,72.37,91,64,3.6,VE,broken clouds,2021-11-01 04:42:42
441,Harrisonburg,38.4496,-78.8689,56.14,91,90,0.0,US,overcast clouds,2021-11-01 04:42:42
442,Stokmarknes,68.5646,14.9108,47.5,76,75,9.22,NO,broken clouds,2021-11-01 04:42:43
443,Hofn,64.2539,-15.2082,39.51,60,100,28.39,IS,overcast clouds,2021-11-01 04:42:44
444,Matara,5.9485,80.5353,81.86,81,99,10.67,LK,overcast clouds,2021-11-01 04:42:44
445,Templin,53.1186,13.5022,49.82,83,92,7.52,DE,overcast clouds,2021-11-01 04:42:45
446,Santa Rosalia,27.3167,-112.2833,71.49,44,71,6.35,MX,broken clouds,2021-11-01 04:42:45
447,Masallatah,32.6167,14.0,69.51,38,47,11.92,LY,scattered clouds,2021-11-01 04:42:46
448,Kashi,39.4547,75.9797,49.23,40,0,6.71,CN,clear sky,2021-11-01 04:42:46
449,Bonavista,48.6499,-53.1147,47.12,88,90,15.73,CA,overcast clouds,2021-11-01 04:42:47
450,Licheng,23.2955,113.8284,78.73,64,93,3.8,CN,overcast clouds,2021-11-01 04:42:48
451,Mazagao,-0.115,-51.2894,82.45,96,79,4.12,BR,broken clouds,2021-11-01 04:42:48
452,Dabrowa Tarnowska,50.1746,20.9863,44.69,80,0,7.0,PL,clear sky,2021-11-01 04:43:49
453,Sioux Lookout,50.1001,-91.917,32.38,93,90,9.22,CA,light shower snow,2021-11-01 04:43:49
454,Bezhanitsy,56.9767,29.8907,39.83,86,16,5.55,RU,few clouds,2021-11-01 04:43:50
455,Dzerzhinskoye,56.8344,95.2283,29.48,72,100,15.28,RU,overcast clouds,2021-11-01 04:43:51
456,Ushibuka,32.1906,130.0228,69.64,57,77,9.73,JP,broken clouds,2021-11-01 04:43:51
457,Tambopata,-12.7333,-69.1833,74.64,80,74,1.16,PE,broken clouds,2021-11-01 04:43:52
458,Weligama,5.9667,80.4167,81.34,81,100,11.36,LK,overcast clouds,2021-11-01 04:42:04
459,Madarounfa,13.3087,7.156,77.49,21,65,8.88,NE,broken clouds,2021-11-01 04:43:53
460,Nishihara,26.1842,127.7558,80.26,65,40,16.11,JP,scattered clouds,2021-11-01 04:43:53
461,Tongchuan,35.0806,109.0897,57.63,56,99,9.28,CN,overcast clouds,2021-11-01 04:43:54
462,Beira,-19.8436,34.8389,71.69,88,40,5.75,MZ,scattered clouds,2021-11-01 04:43:54
463,Karpogory,64.0019,44.4451,29.48,92,100,7.63,RU,overcast clouds,2021-11-01 04:43:55
464,Chuzhou,32.3219,118.2978,70.92,48,64,8.39,CN,broken clouds,2021-11-01 04:43:56
465,Dunedin,-45.8742,170.5036,62.8,61,41,5.99,NZ,scattered clouds,2021-11-01 04:43:56
466,Teguldet,57.3064,88.1667,19.22,68,100,11.48,RU,overcast clouds,2021-11-01 04:41:20
467,Narrabri,-30.3167,149.7833,77.09,36,93,3.44,AU,overcast clouds,2021-11-01 04:43:57
468,Saint-Paul,-21.0096,55.2707,80.01,78,1,1.01,RE,clear sky,2021-11-01 04:43:58
469,Bud,39.447,-86.1758,46.49,87,0,7.49,US,clear sky,2021-11-01 04:43:58
470,Andenes,69.3143,16.1194,44.58,81,40,10.36,NO,scattered clouds,2021-11-01 04:43:59
471,Charters Towers,-20.1,146.2667,91.9,35,84,18.7,AU,broken clouds,2021-11-01 04:36:59
472,Luderitz,-26.6481,15.1594,61.36,69,100,7.18,NA,overcast clouds,2021-11-01 04:44:00
473,Tricase,39.9304,18.3553,60.87,64,99,12.24,IT,overcast clouds,2021-11-01 04:44:00
474,Lagoa,39.05,-27.9833,68.36,91,100,9.71,PT,overcast clouds,2021-11-01 04:44:01
475,San Patricio,28.017,-97.5169,75.81,63,0,7.65,US,clear sky,2021-11-01 04:44:02
476,Puerto Del Rosario,28.5004,-13.8627,67.75,77,0,12.66,ES,clear sky,2021-11-01 04:44:02
477,Fairview,40.8126,-73.999,57.2,78,1,4.61,US,clear sky,2021-11-01 04:42:52
478,Sao Pedro Do Sul,-29.6206,-54.1789,66.47,89,38,3.74,BR,scattered clouds,2021-11-01 04:44:03
479,San Luis,-33.295,-66.3356,52.77,91,100,6.96,AR,moderate rain,2021-11-01 04:44:04
480,Chalisgaon,20.4667,75.0167,80.19,32,48,3.38,IN,scattered clouds,2021-11-01 04:44:04
481,Ginda,30.6945,78.4932,61.07,50,1,5.23,IN,clear sky,2021-11-01 04:44:05
482,Havelock,34.8791,-76.9013,62.92,91,40,0.0,US,scattered clouds,2021-11-01 04:34:14
483,Utena,55.5,25.6,41.4,77,5,10.71,LT,clear sky,2021-11-01 04:44:06
484,Mayo,38.8876,-76.5119,58.12,86,1,1.01,US,clear sky,2021-11-01 04:41:11
485,Kloulklubed,7.0419,134.2556,86.5,69,96,6.15,PW,overcast clouds,2021-11-01 04:44:06
486,San Cristobal,7.7669,-72.225,64.58,98,99,1.07,VE,light rain,2021-11-01 04:44:07
487,Gwanda,-20.9333,29.0,69.57,61,0,11.45,ZW,clear sky,2021-11-01 04:44:08
488,Half Moon Bay,37.4636,-122.4286,59.7,82,75,4.61,US,broken clouds,2021-11-01 04:44:08
489,Yarmouth,41.7057,-70.2286,60.1,89,1,8.01,US,clear sky,2021-11-01 04:41:52
490,Camana,-16.6228,-72.7111,64.53,85,11,6.31,PE,few clouds,2021-11-01 04:44:09
491,Papetoai,-17.4961,-149.8729,80.19,72,17,12.39,PF,few clouds,2021-11-01 04:44:10
492,Rantepao,-2.9701,119.8978,84.96,55,90,4.36,ID,overcast clouds,2021-11-01 04:44:11
493,Vanimo,-2.6741,141.3028,77.25,92,99,6.98,PG,overcast clouds,2021-11-01 04:37:06
494,Troitsko-Pechorsk,62.7084,56.1964,12.43,94,83,3.76,RU,broken clouds,2021-11-01 04:44:12
495,Werneck,49.9833,10.1,54.75,92,100,9.46,DE,moderate rain,2021-11-01 04:44:13
496,Tecoanapa,16.5167,-98.75,76.55,88,15,4.29,MX,few clouds,2021-11-01 04:44:13
497,Obodivka,48.4051,29.2477,37.6,92,0,6.73,UA,clear sky,2021-11-01 04:44:14
498,Sao Jose Da Coroa Grande,-8.8978,-35.1478,76.05,85,53,6.67,BR,broken clouds,2021-11-01 04:44:15
499,Alofi,-19.0595,-169.9187,78.69,65,75,14.97,NU,broken clouds,2021-11-01 04:45:15
500,Nizhniy Kuranakh,58.8353,125.4869,33.42,75,65,2.64,RU,broken clouds,2021-11-01 04:45:16
501,Alasehir,38.3508,28.5172,55.8,94,100,1.68,TR,light rain,2021-11-01 04:45:17
502,Ahtopol,42.1,27.95,54.07,91,100,0.72,BG,overcast clouds,2021-11-01 04:45:17
503,Kavaratti,10.5669,72.642,82.09,78,92,8.16,IN,overcast clouds,2021-11-01 04:43:14
504,Halifax,44.6453,-63.5724,56.21,96,99,4.61,CA,overcast clouds,2021-11-01 04:44:14
505,Nizhnevartovsk,60.9344,76.5531,-0.38,85,20,2.24,RU,few clouds,2021-11-01 04:45:19
506,Seoul,37.5683,126.9778,63.79,53,40,10.36,KR,scattered clouds,2021-11-01 04:40:12
507,Parrita,9.5201,-84.3225,81.99,92,100,2.26,CR,overcast clouds,2021-11-01 04:45:20
508,Kieta,-6.2167,155.6333,81.86,78,93,1.83,PG,light rain,2021-11-01 04:45:20
509,Faanui,-16.4833,-151.75,79.23,73,74,16.08,PF,broken clouds,2021-11-01 04:35:32
510,Syracuse,37.0881,15.2792,62.44,91,99,8.48,IT,light rain,2021-11-01 04:45:21
511,Ornskoldsvik,63.2909,18.7153,40.82,100,74,3.44,SE,broken clouds,2021-11-01 04:41:14
512,Lata,40.1629,-8.3327,59.92,96,100,4.99,PT,overcast clouds,2021-11-01 04:37:03
513,Yenagoa,4.9247,6.2642,74.71,94,100,1.59,NG,light rain,2021-11-01 04:45:22
514,Krasnozerskoye,53.9828,79.2374,28.2,79,100,14.03,RU,overcast clouds,2021-11-01 04:45:23
515,Les Cayes,18.2,-73.75,75.54,85,1,4.7,HT,clear sky,2021-11-01 04:45:24
516,Saint-Augustin,51.226,-58.6502,43.54,78,100,7.81,CA,overcast clouds,2021-11-01 04:44:38
517,Pimenta Bueno,-11.6725,-61.1936,72.7,93,100,1.83,BR,light rain,2021-11-01 04:45:25
518,Esperance,-33.8667,121.9,73.24,58,100,20.8,AU,overcast clouds,2021-11-01 04:45:25
519,Raub,3.7899,101.857,88.03,64,97,0.45,MY,overcast clouds,2021-11-01 04:45:26
520,Sumbe,-11.2061,13.8437,73.69,90,100,1.95,AO,light rain,2021-11-01 04:45:27
521,Dalbandin,28.8947,64.4101,69.31,21,0,6.02,PK,clear sky,2021-11-01 04:45:27
522,Christchurch,-43.5333,172.6333,61.32,69,55,11.01,NZ,broken clouds,2021-11-01 04:40:45
523,Hambantota,6.1241,81.1185,86.34,79,40,5.75,LK,scattered clouds,2021-11-01 04:38:35
524,Larsnes,62.2028,5.5773,51.01,83,100,4.25,NO,light rain,2021-11-01 04:45:29
525,Imeni Poliny Osipenko,52.4201,136.4853,35.94,39,6,10.0,RU,clear sky,2021-11-01 04:45:29
526,Benguela,-12.5763,13.4055,72.72,80,89,3.96,AO,overcast clouds,2021-11-01 04:45:30
527,Parkent,41.2944,69.6764,44.42,45,3,3.44,UZ,clear sky,2021-11-01 04:45:31
528,Udachnyy,66.4167,112.4,6.58,85,34,14.65,RU,scattered clouds,2021-11-01 04:45:31
529,College,64.8569,-147.8028,46.35,40,75,9.22,US,broken clouds,2021-11-01 04:45:32
530,Moron,-34.6534,-58.6198,61.0,93,88,5.01,AR,light rain,2021-11-01 04:43:13
531,Xining,36.6167,101.7667,44.96,54,56,2.04,CN,broken clouds,2021-11-01 04:45:33
532,Mali,12.079,-12.2982,60.17,75,58,2.53,GN,broken clouds,2021-11-01 04:45:33
533,Saint-Georges,12.0564,-61.7485,79.07,76,100,9.17,GD,overcast clouds,2021-11-01 04:45:34
534,Seymchan,62.8833,152.4333,-0.85,87,33,4.43,RU,scattered clouds,2021-11-01 04:45:34
535,Marawi,7.9986,124.2928,75.65,76,84,7.09,PH,broken clouds,2021-11-01 04:39:58
536,Lompoc,34.6391,-120.4579,57.78,88,1,0.0,US,clear sky,2021-11-01 04:41:05
537,Porto Belo,-27.1578,-48.5531,67.98,90,100,7.29,BR,overcast clouds,2021-11-01 04:45:36
538,Evensk,61.95,159.2333,0.61,76,25,8.66,RU,scattered clouds,2021-11-01 04:45:36
539,Finnsnes,69.2296,17.9811,40.96,92,100,5.59,NO,overcast clouds,2021-11-01 04:45:37
540,Severinia,-20.8094,-48.8028,67.46,97,42,5.01,BR,scattered clouds,2021-11-01 04:45:38
541,Inhambane,-23.865,35.3833,68.0,82,20,0.0,MZ,few clouds,2021-11-01 04:45:39
542,Kupang,-10.1667,123.5833,91.98,66,20,13.8,ID,few clouds,2021-11-01 04:45:39
543,Hastings,50.8552,0.5729,53.53,74,92,23.85,GB,overcast clouds,2021-11-01 04:45:40
544,Jiutai,44.1525,125.8328,42.53,60,99,3.24,CN,overcast clouds,2021-11-01 04:45:41
545,Sonepur,20.8333,83.9167,82.85,65,41,3.4,IN,scattered clouds,2021-11-01 04:45:41
546,Amapa,1.0,-52.0,71.22,100,100,2.35,BR,overcast clouds,2021-11-01 04:36:58
547,Montanhas,-6.4858,-35.2875,80.15,90,48,5.57,BR,scattered clouds,2021-11-01 04:46:42
548,Narsaq,60.9167,-46.05,25.02,64,30,7.58,GL,scattered clouds,2021-11-01 04:43:34
549,Grand Bank,47.0999,-55.765,47.98,88,100,17.45,CA,overcast clouds,2021-11-01 04:46:43
550,Lasa,46.6166,10.7002,48.94,99,98,3.94,IT,overcast clouds,2021-11-01 04:39:46
551,Shimoda,34.6667,138.95,68.36,71,86,9.33,JP,overcast clouds,2021-11-01 04:46:44
552,Sangar,63.9242,127.4739,7.83,93,96,5.41,RU,overcast clouds,2021-11-01 04:46:45
553,Okhotsk,59.3833,143.3,13.42,63,21,10.74,RU,few clouds,2021-11-01 04:46:46
554,Ryotsu,38.0833,138.4333,62.56,72,100,5.53,JP,overcast clouds,2021-11-01 04:46:46
555,Ouegoa,-20.35,164.4333,79.29,59,21,6.69,NC,few clouds,2021-11-01 04:46:47
556,Muromtsevo,56.3724,75.2418,25.65,92,100,7.76,RU,light snow,2021-11-01 04:46:48
557,Labuhan,-6.8844,112.2051,81.75,75,100,7.31,ID,overcast clouds,2021-11-01 04:46:49
558,Ambon,-3.6954,128.1814,87.94,66,40,6.91,ID,scattered clouds,2021-11-01 04:46:49
559,Pangnirtung,66.1451,-65.7125,19.15,97,96,0.94,CA,overcast clouds,2021-11-01 04:38:24
560,Palencia,42.4167,-4.5,50.92,66,78,16.15,ES,broken clouds,2021-11-01 04:46:50
561,Kitui,-1.367,38.0106,70.81,69,23,6.24,KE,few clouds,2021-11-01 04:46:51
562,Riyadh,24.6877,46.7219,66.34,23,0,3.69,SA,clear sky,2021-11-01 04:43:05
563,Yukhnov,54.7444,35.2297,36.23,87,1,5.21,RU,clear sky,2021-11-01 04:46:52
564,Batken,39.8333,71.0,35.69,48,3,2.64,KG,clear sky,2021-11-01 04:46:52
565,Nador,35.174,-2.9287,68.25,73,0,4.61,MA,clear sky,2021-11-01 04:46:53
566,Port-Gentil,-0.7193,8.7815,76.33,91,100,8.48,GA,heavy intensity rain,2021-11-01 04:46:53
567,Bubaque,11.2833,-15.8333,82.33,73,79,11.99,GW,broken clouds,2021-11-01 04:46:54
568,Oum Hadjer,13.2954,19.6966,80.29,24,37,8.39,TD,scattered clouds,2021-11-01 04:46:54
569,Ketchikan,55.3422,-131.6461,34.27,86,1,0.0,US,clear sky,2021-11-01 04:46:55
570,Camopi,3.1655,-52.3158,71.42,99,93,1.36,GF,overcast clouds,2021-11-01 04:46:56
571,Gamba,-2.65,10.0,75.18,90,100,7.25,GA,moderate rain,2021-11-01 04:46:56
572,Ponta Delgada,37.7333,-25.6667,73.51,100,75,9.22,PT,broken clouds,2021-11-01 04:46:57
573,Sovetskiy,61.3614,63.5842,16.9,87,99,7.56,RU,overcast clouds,2021-11-01 04:46:57
574,Mahibadhoo,3.7833,72.9667,83.61,73,61,19.77,MV,broken clouds,2021-11-01 04:46:58
575,Oistins,13.0667,-59.5333,73.49,88,75,17.27,BB,broken clouds,2021-11-01 04:41:17
576,Bronnoysund,65.4625,12.1997,48.42,71,0,9.22,NO,clear sky,2021-11-01 04:46:59
577,Wau,7.7029,27.9953,76.5,75,82,1.3,SS,broken clouds,2021-11-01 04:47:00
578,Norfolk,42.1668,-71.2495,55.94,92,1,4.61,US,clear sky,2021-11-01 04:47:00
579,Lucapa,-8.4192,20.7447,66.0,96,100,2.15,AO,overcast clouds,2021-11-01 04:47:01
580,Trairi,-3.2778,-39.2689,80.67,75,80,10.67,BR,broken clouds,2021-11-01 04:46:23
581,Erdenet,49.0333,104.0833,38.05,41,96,4.68,MN,overcast clouds,2021-11-01 04:47:02
582,Lehututu,-23.9667,21.8667,69.87,27,0,8.12,BW,clear sky,2021-11-01 04:47:02
583,Isabela,6.7085,121.9711,87.85,68,56,5.91,PH,broken clouds,2021-11-01 04:47:03
584,Nome,64.5011,-165.4064,14.07,79,1,0.0,US,clear sky,2021-11-01 04:47:04
585,Tacuati,-23.45,-56.5833,69.91,89,1,3.4,PY,clear sky,2021-11-01 04:47:04
586,Ler,8.3018,30.1418,77.23,67,98,3.02,SS,overcast clouds,2021-11-01 04:47:05
587,Bogorodskoye,56.55,37.8833,36.84,87,8,6.98,RU,clear sky,2021-11-01 04:47:05
588,Terrace,54.5163,-128.6035,39.11,65,20,18.41,CA,few clouds,2021-11-01 04:47:06
589,Rabo De Peixe,37.8,-25.5833,72.28,94,75,9.22,PT,broken clouds,2021-11-01 04:47:07
590,Cockburn Town,21.4612,-71.1419,81.79,68,98,9.98,TC,overcast clouds,2021-11-01 04:47:03
591,Aksu,41.1231,80.2644,52.97,23,2,3.18,CN,clear sky,2021-11-01 04:47:08
592,Cambridge,43.3601,-80.3127,48.36,88,90,1.99,CA,mist,2021-11-01 04:44:21
593,Dicabisagan,17.0818,122.4157,84.16,63,42,9.98,PH,scattered clouds,2021-11-01 04:41:16
594,Bor,56.3567,44.0669,42.73,87,11,8.48,RU,few clouds,2021-11-01 04:48:09
595,Maragogi,-9.0122,-35.2225,75.76,86,52,6.55,BR,broken clouds,2021-11-01 04:46:53
596,Sabha,27.0377,14.4283,64.49,28,0,3.18,LY,clear sky,2021-11-01 04:48:10
597,Rock Sound,24.9,-76.2,79.2,52,96,2.57,BS,overcast clouds,2021-11-01 04:48:11
598,Chudovo,59.1167,31.6833,40.48,96,67,5.37,RU,broken clouds,2021-11-01 04:48:11
599,Zaoyang,32.1272,112.7542,68.86,48,100,8.52,CN,overcast clouds,2021-11-01 04:48:12
600,Itarema,-2.9248,-39.9167,80.33,76,57,13.44,BR,broken clouds,2021-11-01 04:48:12
601,Ebebiyin,2.1511,11.3353,67.55,99,100,2.91,GQ,overcast clouds,2021-11-01 04:48:13
602,Puri,19.8,85.85,84.72,62,13,8.16,IN,few clouds,2021-11-01 04:48:14
603,Ahipara,-35.1667,173.1667,59.9,64,32,12.86,NZ,scattered clouds,2021-11-01 04:48:14
604,Novikovo,51.1537,37.8879,38.08,76,0,5.17,RU,clear sky,2021-11-01 04:48:15
605,Tortoli,39.9256,9.6572,60.98,77,20,4.61,IT,few clouds,2021-11-01 04:48:16
606,Olga,43.7444,135.2892,49.03,74,100,7.36,RU,light rain,2021-11-01 04:48:16
607,Ankang,32.68,109.0172,61.66,86,100,2.19,CN,overcast clouds,2021-11-01 04:48:17
608,Boundiali,9.5217,-6.4869,71.56,85,99,3.94,CI,overcast clouds,2021-11-01 04:48:17
609,Tual,-5.6667,132.75,84.34,70,92,7.56,ID,overcast clouds,2021-11-01 04:48:18
610,Colonia,50.9333,6.95,51.96,93,0,1.01,DE,clear sky,2021-11-01 04:48:18
611,Sicuani,-14.2694,-71.2261,40.01,98,100,2.04,PE,overcast clouds,2021-11-01 04:48:19
612,Plouzane,48.3833,-4.6167,51.85,79,0,14.97,FR,clear sky,2021-11-01 04:48:20
613,Smithers,54.7804,-127.1743,26.92,80,1,4.61,CA,clear sky,2021-11-01 04:45:26
614,Anloga,5.7947,0.8973,79.02,80,80,14.92,GH,broken clouds,2021-11-01 04:48:20
615,Cap-Aux-Meules,47.3821,-61.8597,53.62,94,100,18.41,CA,light rain,2021-11-01 04:47:08
616,Bintulu,3.1667,113.0333,88.21,74,40,5.01,MY,scattered clouds,2021-11-01 04:48:21
617,Batemans Bay,-35.7167,150.1833,82.2,52,67,10.29,AU,broken clouds,2021-11-01 04:48:22
618,Mragowo,53.8644,21.3051,39.2,72,5,12.17,PL,clear sky,2021-11-01 04:48:23
619,Knysna,-34.0363,23.0471,62.98,86,98,9.33,ZA,overcast clouds,2021-11-01 04:38:29
620,Amuntai,-2.4177,115.2494,89.47,57,91,3.0,ID,overcast clouds,2021-11-01 04:48:24
621,Hasaki,35.7333,140.8333,68.29,69,100,4.63,JP,overcast clouds,2021-11-01 04:44:30
622,Ayan,56.45,138.1667,29.61,36,81,3.71,RU,broken clouds,2021-11-01 04:48:25
623,Manavalakurichi,8.1333,77.3,78.89,84,100,3.58,IN,moderate rain,2021-11-01 04:48:25
624,Puli,23.9664,120.9695,84.22,59,66,5.61,TW,broken clouds,2021-11-01 04:48:26
625,Rawlins,41.7911,-107.2387,32.43,92,90,8.05,US,light snow,2021-11-01 04:48:26
626,Te Anau,-45.4167,167.7167,50.02,87,99,5.84,NZ,overcast clouds,2021-11-01 04:48:27
627,Praia Da Vitoria,38.7333,-27.0667,70.05,94,20,3.56,PT,few clouds,2021-11-01 04:48:27
628,Howard Springs,-12.497,131.047,95.88,54,43,11.12,AU,scattered clouds,2021-11-01 04:48:28
629,Darfo,45.8779,10.1812,54.14,92,99,1.81,IT,overcast clouds,2021-11-01 04:48:29
630,Kawalu,-7.3817,108.2082,82.83,76,98,3.29,ID,overcast clouds,2021-11-01 04:48:30
631,Obeliai,55.9667,25.15,41.56,79,41,9.42,LT,scattered clouds,2021-11-01 04:48:30
632,Atambua,-9.1061,124.8925,86.74,55,61,3.58,ID,broken clouds,2021-11-01 04:48:31
633,Bozeman,45.6796,-111.0386,31.42,70,90,1.01,US,overcast clouds,2021-11-01 04:46:00
634,Reguengos De Monsaraz,38.4253,-7.5349,67.68,90,100,14.58,PT,overcast clouds,2021-11-01 04:48:31
635,Aguimes,27.9054,-15.4461,66.0,74,40,13.8,ES,scattered clouds,2021-11-01 04:48:32
636,Tezu,27.9167,96.1667,80.1,42,69,3.44,IN,broken clouds,2021-11-01 04:48:32
637,Houma,29.5958,-90.7195,62.6,94,30,0.85,US,scattered clouds,2021-11-01 04:48:20
638,Oranjestad,12.524,-70.027,80.55,78,20,10.36,AW,few clouds,2021-11-01 04:48:32
639,Nizwa,22.9333,57.5333,85.06,15,0,4.92,OM,clear sky,2021-11-01 04:48:34
640,Batagay-Alyta,67.8006,130.4114,3.04,76,40,7.74,RU,scattered clouds,2021-11-01 04:48:34
641,Manggar,-2.8833,108.2667,81.45,78,100,5.3,ID,overcast clouds,2021-11-01 04:49:35
642,Port Macquarie,-31.4333,152.9167,73.36,53,99,12.95,AU,overcast clouds,2021-11-01 04:47:04
643,Tinos,37.5375,25.1634,63.34,74,21,13.38,GR,few clouds,2021-11-01 04:49:36
644,Dokka,60.84,10.0618,46.06,98,100,7.23,NO,moderate rain,2021-11-01 04:49:36
645,Boden,65.8252,21.6886,35.6,100,100,4.21,SE,overcast clouds,2021-11-01 04:49:37
646,Baiyin,36.5583,104.2081,41.88,63,99,5.68,CN,overcast clouds,2021-11-01 04:49:37
647,Zacualtipan,20.65,-98.6,54.81,94,100,1.3,MX,overcast clouds,2021-11-01 04:49:38
648,Jalpan,21.2333,-99.4833,67.46,96,100,2.89,MX,overcast clouds,2021-11-01 04:49:39
649,Beyneu,45.3167,55.2,50.97,45,0,6.93,KZ,clear sky,2021-11-01 04:47:11
650,Chara,56.9064,118.2631,27.84,59,16,1.28,RU,few clouds,2021-11-01 04:49:40
651,Bolilao,10.8833,122.7333,84.51,73,58,18.92,PH,broken clouds,2021-11-01 04:49:41
652,Umm Lajj,25.0213,37.2685,83.61,50,84,8.21,SA,broken clouds,2021-11-01 04:49:41
653,High Level,58.5169,-117.136,26.71,80,1,3.44,CA,clear sky,2021-11-01 04:49:42
654,Saint Petersburg,59.8944,30.2642,48.27,87,90,2.24,RU,overcast clouds,2021-11-01 04:46:37
655,Susangerd,31.5608,48.1831,73.42,28,98,6.96,IR,overcast clouds,2021-11-01 04:49:43
656,Talalayivka,50.9578,31.9209,38.1,78,0,7.85,UA,clear sky,2021-11-01 04:49:44
657,Saint-Pierre,-21.3393,55.4781,79.57,64,0,13.8,RE,clear sky,2021-11-01 04:49:44
658,Avondale,33.4356,-112.3496,77.68,33,1,0.0,US,clear sky,2021-11-01 04:49:45
659,Merke,42.8728,73.1786,49.42,55,48,2.71,KZ,scattered clouds,2021-11-01 04:49:45
660,Sergeyevka,53.88,67.4158,42.1,88,100,13.76,KZ,overcast clouds,2021-11-01 04:49:46
661,Shebalino,51.2917,85.6772,32.85,44,100,7.76,RU,overcast clouds,2021-11-01 04:49:46
662,Iskilip,40.7353,34.4739,53.19,66,100,2.68,TR,overcast clouds,2021-11-01 04:49:47
663,Maldonado,-34.6667,-54.9167,61.99,97,100,3.51,UY,overcast clouds,2021-11-01 04:49:48
664,Elko,41.0002,-115.5012,48.63,65,47,7.0,US,scattered clouds,2021-11-01 04:45:35
665,Swabi,34.1199,72.4699,70.86,29,2,2.06,PK,clear sky,2021-11-01 04:49:49
666,Najran,17.4924,44.1277,59.65,32,7,5.53,SA,clear sky,2021-11-01 04:49:49
667,Tessalit,20.1986,1.0114,78.82,17,3,9.01,ML,clear sky,2021-11-01 04:49:50
668,Huangmei,30.1924,116.025,70.43,49,90,6.49,CN,overcast clouds,2021-11-01 04:49:50
669,Mattru,7.6244,-11.8332,71.17,98,100,0.76,SL,overcast clouds,2021-11-01 04:49:51
670,Puerto Escondido,15.85,-97.0667,77.34,85,72,5.68,MX,broken clouds,2021-11-01 04:46:21
671,Nanton,50.3501,-113.7687,16.36,87,5,3.94,CA,clear sky,2021-11-01 04:49:52
672,Yelandur,12.0667,77.0333,79.95,72,99,5.97,IN,overcast clouds,2021-11-01 04:49:53
673,Hermiston,45.8404,-119.2895,44.28,54,20,1.34,US,few clouds,2021-11-01 04:49:53
674,Promyshlennyy,67.5833,63.9167,5.56,97,58,4.34,RU,broken clouds,2021-11-01 04:49:54
675,Nsanje,-16.92,35.262,80.11,70,22,5.35,MW,few clouds,2021-11-01 04:49:54
676,Beloha,-25.1667,45.05,77.97,61,19,6.55,MG,few clouds,2021-11-01 04:49:55
677,San Quintin,30.4833,-115.95,61.63,87,27,5.08,MX,scattered clouds,2021-11-01 04:49:56
678,Hay River,60.8156,-115.7999,31.98,69,20,10.36,CA,few clouds,2021-11-01 04:49:56
679,Tynda,55.1667,124.7167,31.12,42,85,3.62,RU,overcast clouds,2021-11-01 04:49:57
680,Aron,24.3833,77.4167,77.23,31,0,4.14,IN,clear sky,2021-11-01 04:49:57
681,Bobrovka,54.047,61.7455,44.38,82,100,9.75,RU,overcast clouds,2021-11-01 04:49:58
682,Bima,-8.4667,118.7167,87.49,66,60,4.79,ID,light rain,2021-11-01 04:49:59
